sampleId	sampleName	地址	经度	纬度	环境图片	门图片地址	纲图片地址	目图片地址	科图片地址	属图片地址
1	1	生科草坪	116.313664	39.99243	pic/env/N-1.jpg	pic/pie_charts_level2/pie_chart_level2-1.png	pic/pie_charts_level3/pie_chart_level3-1.png	pic/pie_charts_level4/pie_chart_level4-1.png	pic/pie_charts_level5/pie_chart_level5-1.png	pic/pie_charts_level6/pie_chart_level6-1.png
2	10	三教	116.313518	39.9893	pic/env/N-10.jpg	pic/pie_charts_level2/pie_chart_level2-2.png	pic/pie_charts_level3/pie_chart_level3-2.png	pic/pie_charts_level4/pie_chart_level4-2.png	pic/pie_charts_level5/pie_chart_level5-2.png	pic/pie_charts_level6/pie_chart_level6-2.png
3	11	燕园大厦	116.314498	39.98775	pic/env/N-11.jpg	pic/pie_charts_level2/pie_chart_level2-3.png	pic/pie_charts_level3/pie_chart_level3-3.png	pic/pie_charts_level4/pie_chart_level4-3.png	pic/pie_charts_level5/pie_chart_level5-3.png	pic/pie_charts_level6/pie_chart_level6-3.png
4	12	邱德拔	116.314556	39.98891	pic/env/N-12.jpg	pic/pie_charts_level2/pie_chart_level2-4.png	pic/pie_charts_level3/pie_chart_level3-4.png	pic/pie_charts_level4/pie_chart_level4-4.png	pic/pie_charts_level5/pie_chart_level5-4.png	pic/pie_charts_level6/pie_chart_level6-4.png
5	13	五四运动场	116.313498	39.98799	pic/env/N-13.jpg	pic/pie_charts_level2/pie_chart_level2-5.png	pic/pie_charts_level3/pie_chart_level3-5.png	pic/pie_charts_level4/pie_chart_level4-5.png	pic/pie_charts_level5/pie_chart_level5-5.png	pic/pie_charts_level6/pie_chart_level6-5.png
6	14	对外汉语教育学院	116.311582	39.98797	pic/env/N-14.jpg	pic/pie_charts_level2/pie_chart_level2-6.png	pic/pie_charts_level3/pie_chart_level3-6.png	pic/pie_charts_level4/pie_chart_level4-6.png	pic/pie_charts_level5/pie_chart_level5-6.png	pic/pie_charts_level6/pie_chart_level6-6.png
7	16	农园	116.312125	39.98933	pic/env/N-16.jpg	pic/pie_charts_level2/pie_chart_level2-7.png	pic/pie_charts_level3/pie_chart_level3-7.png	pic/pie_charts_level4/pie_chart_level4-7.png	pic/pie_charts_level5/pie_chart_level5-7.png	pic/pie_charts_level6/pie_chart_level6-7.png
8	17	燕南园	116.310233	39.99068	pic/env/N-17.jpg	pic/pie_charts_level2/pie_chart_level2-8.png	pic/pie_charts_level3/pie_chart_level3-8.png	pic/pie_charts_level4/pie_chart_level4-8.png	pic/pie_charts_level5/pie_chart_level5-8.png	pic/pie_charts_level6/pie_chart_level6-8.png
9	18	光华管理学院	116.311313	39.99054	pic/env/N-18.jpg	pic/pie_charts_level2/pie_chart_level2-9.png	pic/pie_charts_level3/pie_chart_level3-9.png	pic/pie_charts_level4/pie_chart_level4-9.png	pic/pie_charts_level5/pie_chart_level5-9.png	pic/pie_charts_level6/pie_chart_level6-9.png
10	19	地学楼	116.311801	39.99194	pic/env/N-19.jpg	pic/pie_charts_level2/pie_chart_level2-10.png	pic/pie_charts_level3/pie_chart_level3-10.png	pic/pie_charts_level4/pie_chart_level4-10.png	pic/pie_charts_level5/pie_chart_level5-10.png	pic/pie_charts_level6/pie_chart_level6-10.png
11	2	东侧门	116.315041	39.99293	pic/env/N-2.jpg	pic/pie_charts_level2/pie_chart_level2-11.png	pic/pie_charts_level3/pie_chart_level3-11.png	pic/pie_charts_level4/pie_chart_level4-11.png	pic/pie_charts_level5/pie_chart_level5-11.png	pic/pie_charts_level6/pie_chart_level6-11.png
12	20	图书馆	116.310716	39.99188	pic/env/N-20.jpg	pic/pie_charts_level2/pie_chart_level2-12.png	pic/pie_charts_level3/pie_chart_level3-12.png	pic/pie_charts_level4/pie_chart_level4-12.png	pic/pie_charts_level5/pie_chart_level5-12.png	pic/pie_charts_level6/pie_chart_level6-12.png
13	45312	一教	116.310148	39.99256	pic/env/N-21.jpg	pic/pie_charts_level2/pie_chart_level2-13.png	pic/pie_charts_level3/pie_chart_level3-13.png	pic/pie_charts_level4/pie_chart_level4-13.png	pic/pie_charts_level5/pie_chart_level5-13.png	pic/pie_charts_level6/pie_chart_level6-13.png
14	45343	百周年纪念讲堂	116.31058	39.9899	pic/env/N-22.jpg	pic/pie_charts_level2/pie_chart_level2-14.png	pic/pie_charts_level3/pie_chart_level3-14.png	pic/pie_charts_level4/pie_chart_level4-14.png	pic/pie_charts_level5/pie_chart_level5-14.png	pic/pie_charts_level6/pie_chart_level6-14.png
15	45314	教育学院	116.311572	39.98891	pic/env/N-23-1.jpg	pic/pie_charts_level2/pie_chart_level2-15.png	pic/pie_charts_level3/pie_chart_level3-15.png	pic/pie_charts_level4/pie_chart_level4-15.png	pic/pie_charts_level5/pie_chart_level5-15.png	pic/pie_charts_level6/pie_chart_level6-15.png
16	45345	38-39宿舍区	116.308488	39.98728	pic/env/N-23-2.jpg	pic/pie_charts_level2/pie_chart_level2-16.png	pic/pie_charts_level3/pie_chart_level3-16.png	pic/pie_charts_level4/pie_chart_level4-16.png	pic/pie_charts_level5/pie_chart_level5-16.png	pic/pie_charts_level6/pie_chart_level6-16.png
17	24	文明科学雕塑	116.309732	39.98827	pic/env/N-24.jpg	pic/pie_charts_level2/pie_chart_level2-17.png	pic/pie_charts_level3/pie_chart_level3-17.png	pic/pie_charts_level4/pie_chart_level4-17.png	pic/pie_charts_level5/pie_chart_level5-17.png	pic/pie_charts_level6/pie_chart_level6-17.png
18	25	学一	116.307826	39.98734	pic/env/N-25.jpg	pic/pie_charts_level2/pie_chart_level2-18.png	pic/pie_charts_level3/pie_chart_level3-18.png	pic/pie_charts_level4/pie_chart_level4-18.png	pic/pie_charts_level5/pie_chart_level5-18.png	pic/pie_charts_level6/pie_chart_level6-18.png
19	27	燕南园中间	116.309413	39.98967	pic/env/N-27.jpg	pic/pie_charts_level2/pie_chart_level2-19.png	pic/pie_charts_level3/pie_chart_level3-19.png	pic/pie_charts_level4/pie_chart_level4-19.png	pic/pie_charts_level5/pie_chart_level5-19.png	pic/pie_charts_level6/pie_chart_level6-19.png
20	28	学五草坪	116.3073	39.98895	pic/env/N-28.jpg	pic/pie_charts_level2/pie_chart_level2-20.png	pic/pie_charts_level3/pie_chart_level3-20.png	pic/pie_charts_level4/pie_chart_level4-20.png	pic/pie_charts_level5/pie_chart_level5-20.png	pic/pie_charts_level6/pie_chart_level6-20.png
21	3	东门侧边	116.315221	39.99188	pic/env/N-3.jpg	pic/pie_charts_level2/pie_chart_level2-21.png	pic/pie_charts_level3/pie_chart_level3-21.png	pic/pie_charts_level4/pie_chart_level4-21.png	pic/pie_charts_level5/pie_chart_level5-21.png	pic/pie_charts_level6/pie_chart_level6-21.png
22	30	静园草坪	116.308293	39.99174	pic/env/N-30.jpg	pic/pie_charts_level2/pie_chart_level2-22.png	pic/pie_charts_level3/pie_chart_level3-22.png	pic/pie_charts_level4/pie_chart_level4-22.png	pic/pie_charts_level5/pie_chart_level5-22.png	pic/pie_charts_level6/pie_chart_level6-22.png
23	34	勺园	116.306253	39.99172	pic/env/N-34.jpg	pic/pie_charts_level2/pie_chart_level2-23.png	pic/pie_charts_level3/pie_chart_level3-23.png	pic/pie_charts_level4/pie_chart_level4-23.png	pic/pie_charts_level5/pie_chart_level5-23.png	pic/pie_charts_level6/pie_chart_level6-23.png
24	35	佟园	116.306919	39.99111	pic/env/N-35.jpg	pic/pie_charts_level2/pie_chart_level2-24.png	pic/pie_charts_level3/pie_chart_level3-24.png	pic/pie_charts_level4/pie_chart_level4-24.png	pic/pie_charts_level5/pie_chart_level5-24.png	pic/pie_charts_level6/pie_chart_level6-24.png
25	37	燕南园北侧	116.309241	39.99021	pic/env/N-37.jpg	pic/pie_charts_level2/pie_chart_level2-25.png	pic/pie_charts_level3/pie_chart_level3-25.png	pic/pie_charts_level4/pie_chart_level4-25.png	pic/pie_charts_level5/pie_chart_level5-25.png	pic/pie_charts_level6/pie_chart_level6-25.png
26	38	45甲乙	116.30636	39.98986	pic/env/N-38.jpg	pic/pie_charts_level2/pie_chart_level2-26.png	pic/pie_charts_level3/pie_chart_level3-26.png	pic/pie_charts_level4/pie_chart_level4-26.png	pic/pie_charts_level5/pie_chart_level5-26.png	pic/pie_charts_level6/pie_chart_level6-26.png
27	39	46-47宿舍区	116.306118	39.98861	pic/env/N-39.jpg	pic/pie_charts_level2/pie_chart_level2-27.png	pic/pie_charts_level3/pie_chart_level3-27.png	pic/pie_charts_level4/pie_chart_level4-27.png	pic/pie_charts_level5/pie_chart_level5-27.png	pic/pie_charts_level6/pie_chart_level6-27.png
28	4	理教后门	116.313616	39.99169	pic/env/N-4.jpg	pic/pie_charts_level2/pie_chart_level2-28.png	pic/pie_charts_level3/pie_chart_level3-28.png	pic/pie_charts_level4/pie_chart_level4-28.png	pic/pie_charts_level5/pie_chart_level5-28.png	pic/pie_charts_level6/pie_chart_level6-28.png
29	40	艺园	116.313509	39.99086	pic/env/N-40.jpg	pic/pie_charts_level2/pie_chart_level2-29.png	pic/pie_charts_level3/pie_chart_level3-29.png	pic/pie_charts_level4/pie_chart_level4-29.png	pic/pie_charts_level5/pie_chart_level5-29.png	pic/pie_charts_level6/pie_chart_level6-29.png
30	43	阿卜杜勒阿齐兹图书馆	116.309511	39.99269	pic/env/N-43.jpg	pic/pie_charts_level2/pie_chart_level2-30.png	pic/pie_charts_level3/pie_chart_level3-30.png	pic/pie_charts_level4/pie_chart_level4-30.png	pic/pie_charts_level5/pie_chart_level5-30.png	pic/pie_charts_level6/pie_chart_level6-30.png
31	44	生物标本馆	116.311606	39.99282	pic/env/N-44.jpg	pic/pie_charts_level2/pie_chart_level2-31.png	pic/pie_charts_level3/pie_chart_level3-31.png	pic/pie_charts_level4/pie_chart_level4-31.png	pic/pie_charts_level5/pie_chart_level5-31.png	pic/pie_charts_level6/pie_chart_level6-31.png
32	46	燕南园南侧	116.308421	39.98923	pic/env/N-46.jpg	pic/pie_charts_level2/pie_chart_level2-32.png	pic/pie_charts_level3/pie_chart_level3-32.png	pic/pie_charts_level4/pie_chart_level4-32.png	pic/pie_charts_level5/pie_chart_level5-32.png	pic/pie_charts_level6/pie_chart_level6-32.png
33	6	英杰交流中心	116.313953	39.99052	pic/env/N-6.jpg	pic/pie_charts_level2/pie_chart_level2-33.png	pic/pie_charts_level3/pie_chart_level3-33.png	pic/pie_charts_level4/pie_chart_level4-33.png	pic/pie_charts_level5/pie_chart_level5-33.png	pic/pie_charts_level6/pie_chart_level6-33.png
34	7	理科二号楼	116.314386	39.99089	pic/env/N-7.jpg	pic/pie_charts_level2/pie_chart_level2-34.png	pic/pie_charts_level3/pie_chart_level3-34.png	pic/pie_charts_level4/pie_chart_level4-34.png	pic/pie_charts_level5/pie_chart_level5-34.png	pic/pie_charts_level6/pie_chart_level6-34.png
35	8	二教	116.312905	39.98972	pic/env/N-8.jpg	pic/pie_charts_level2/pie_chart_level2-35.png	pic/pie_charts_level3/pie_chart_level3-35.png	pic/pie_charts_level4/pie_chart_level4-35.png	pic/pie_charts_level5/pie_chart_level5-35.png	pic/pie_charts_level6/pie_chart_level6-35.png
36	CY1	葛利普墓，西门附近墓碑	116.305332	39.993746	pic/env/CY1.jpg	pic/pie_charts_level2/pie_chart_level2-36.png	pic/pie_charts_level3/pie_chart_level3-36.png	pic/pie_charts_level4/pie_chart_level4-36.png	pic/pie_charts_level5/pie_chart_level5-36.png	pic/pie_charts_level6/pie_chart_level6-36.png
37	CY15	元培学院附近李大钊像	116.30817	39.992896	pic/env/CY15.jpg	pic/pie_charts_level2/pie_chart_level2-37.png	pic/pie_charts_level3/pie_chart_level3-37.png	pic/pie_charts_level4/pie_chart_level4-37.png	pic/pie_charts_level5/pie_chart_level5-37.png	pic/pie_charts_level6/pie_chart_level6-37.png
38	CY16	办公楼附近蔡元培像	116.307366	39.994335	pic/env/CY16.jpg	pic/pie_charts_level2/pie_chart_level2-38.png	pic/pie_charts_level3/pie_chart_level3-38.png	pic/pie_charts_level4/pie_chart_level4-38.png	pic/pie_charts_level5/pie_chart_level5-38.png	pic/pie_charts_level6/pie_chart_level6-38.png
39	CY17	未名湖西岸石碑	116.308011	39.994562	pic/env/CY17.jpg	pic/pie_charts_level2/pie_chart_level2-39.png	pic/pie_charts_level3/pie_chart_level3-39.png	pic/pie_charts_level4/pie_chart_level4-39.png	pic/pie_charts_level5/pie_chart_level5-39.png	pic/pie_charts_level6/pie_chart_level6-39.png
40	CY18	未名湖南石墩，花神庙	116.309982	39.994087	pic/env/CY18.jpg	pic/pie_charts_level2/pie_chart_level2-40.png	pic/pie_charts_level3/pie_chart_level3-40.png	pic/pie_charts_level4/pie_chart_level4-40.png	pic/pie_charts_level5/pie_chart_level5-40.png	pic/pie_charts_level6/pie_chart_level6-40.png
41	CY19	博雅塔下石碑	116.311841	39.993963	pic/env/CY19.jpg	pic/pie_charts_level2/pie_chart_level2-41.png	pic/pie_charts_level3/pie_chart_level3-41.png	pic/pie_charts_level4/pie_chart_level4-41.png	pic/pie_charts_level5/pie_chart_level5-41.png	pic/pie_charts_level6/pie_chart_level6-41.png
42	CY2	西南联大纪念碑，西门附近石碑	116.305272	39.99372	pic/env/CY2.jpg	pic/pie_charts_level2/pie_chart_level2-42.png	pic/pie_charts_level3/pie_chart_level3-42.png	pic/pie_charts_level4/pie_chart_level4-42.png	pic/pie_charts_level5/pie_chart_level5-42.png	pic/pie_charts_level6/pie_chart_level6-42.png
43	CY3	校史馆馆前台阶	116.306078	39.993284	pic/env/CY3.jpg	pic/pie_charts_level2/pie_chart_level2-43.png	pic/pie_charts_level3/pie_chart_level3-43.png	pic/pie_charts_level4/pie_chart_level4-43.png	pic/pie_charts_level5/pie_chart_level5-43.png	pic/pie_charts_level6/pie_chart_level6-43.png
44	CY35	西门校友桥桥梁栏杆	116.30506	39.994592	pic/env/CY35.jpg	pic/pie_charts_level2/pie_chart_level2-44.png	pic/pie_charts_level3/pie_chart_level3-44.png	pic/pie_charts_level4/pie_chart_level4-44.png	pic/pie_charts_level5/pie_chart_level5-44.png	pic/pie_charts_level6/pie_chart_level6-44.png
45	CY36	西门华表栏杆	116.305477	39.994523	pic/env/CY36.jpg	pic/pie_charts_level2/pie_chart_level2-45.png	pic/pie_charts_level3/pie_chart_level3-45.png	pic/pie_charts_level4/pie_chart_level4-45.png	pic/pie_charts_level5/pie_chart_level5-45.png	pic/pie_charts_level6/pie_chart_level6-45.png
46	CY4	塞万提斯像	116.305998	39.992798	pic/env/CY4.jpg	pic/pie_charts_level2/pie_chart_level2-46.png	pic/pie_charts_level3/pie_chart_level3-46.png	pic/pie_charts_level4/pie_chart_level4-46.png	pic/pie_charts_level5/pie_chart_level5-46.png	pic/pie_charts_level6/pie_chart_level6-46.png
47	CY40	李兆基人文学苑石刻	116.311648	39.996653	pic/env/CY40.jpg	pic/pie_charts_level2/pie_chart_level2-47.png	pic/pie_charts_level3/pie_chart_level3-47.png	pic/pie_charts_level4/pie_chart_level4-47.png	pic/pie_charts_level5/pie_chart_level5-47.png	pic/pie_charts_level6/pie_chart_level6-47.png
48	CY41	科维理研究所我ai北大天文	116.310766	39.999196	pic/env/CY41.jpg	pic/pie_charts_level2/pie_chart_level2-48.png	pic/pie_charts_level3/pie_chart_level3-48.png	pic/pie_charts_level4/pie_chart_level4-48.png	pic/pie_charts_level5/pie_chart_level5-48.png	pic/pie_charts_level6/pie_chart_level6-48.png
49	CY48	经济学院综合楼石刻	116.312876	39.996839	pic/env/CY48.jpg	pic/pie_charts_level2/pie_chart_level2-49.png	pic/pie_charts_level3/pie_chart_level3-49.png	pic/pie_charts_level4/pie_chart_level4-49.png	pic/pie_charts_level5/pie_chart_level5-49.png	pic/pie_charts_level6/pie_chart_level6-49.png
50	CY49	教育基金会石狮	116.310393	39.996922	pic/env/CY49.jpg	pic/pie_charts_level2/pie_chart_level2-50.png	pic/pie_charts_level3/pie_chart_level3-50.png	pic/pie_charts_level4/pie_chart_level4-50.png	pic/pie_charts_level5/pie_chart_level5-50.png	pic/pie_charts_level6/pie_chart_level6-50.png
51	CY50	郎润园无名桥桥梁栏杆	116.310716	39.997667	pic/env/CY50.jpg	pic/pie_charts_level2/pie_chart_level2-51.png	pic/pie_charts_level3/pie_chart_level3-51.png	pic/pie_charts_level4/pie_chart_level4-51.png	pic/pie_charts_level5/pie_chart_level5-51.png	pic/pie_charts_level6/pie_chart_level6-51.png
52	CY51	房地产管理部消防器材存放柜	116.306859	39.987361	pic/env/CY51.jpg	pic/pie_charts_level2/pie_chart_level2-52.png	pic/pie_charts_level3/pie_chart_level3-52.png	pic/pie_charts_level4/pie_chart_level4-52.png	pic/pie_charts_level5/pie_chart_level5-52.png	pic/pie_charts_level6/pie_chart_level6-52.png
53	FXY-1	法学院	116.31337	39.99471	pic/env/FXY-1.jpg	pic/pie_charts_level2/pie_chart_level2-53.png	pic/pie_charts_level3/pie_chart_level3-53.png	pic/pie_charts_level4/pie_chart_level4-53.png	pic/pie_charts_level5/pie_chart_level5-53.png	pic/pie_charts_level6/pie_chart_level6-53.png
54	FXY-2	法学院	116.31321	39.99371	pic/env/FXY-2.jpg	pic/pie_charts_level2/pie_chart_level2-54.png	pic/pie_charts_level3/pie_chart_level3-54.png	pic/pie_charts_level4/pie_chart_level4-54.png	pic/pie_charts_level5/pie_chart_level5-54.png	pic/pie_charts_level6/pie_chart_level6-54.png
55	JMq-1	居民区	116.31196	39.99804	pic/env/JMq-1.jpg	pic/pie_charts_level2/pie_chart_level2-55.png	pic/pie_charts_level3/pie_chart_level3-55.png	pic/pie_charts_level4/pie_chart_level4-55.png	pic/pie_charts_level5/pie_chart_level5-55.png	pic/pie_charts_level6/pie_chart_level6-55.png
56	JMq-2	居民区	116.31113	39.99788	pic/env/JMq-2.jpg	pic/pie_charts_level2/pie_chart_level2-56.png	pic/pie_charts_level3/pie_chart_level3-56.png	pic/pie_charts_level4/pie_chart_level4-56.png	pic/pie_charts_level5/pie_chart_level5-56.png	pic/pie_charts_level6/pie_chart_level6-56.png
57	JMq-3	居民区	116.31083	39.99687	pic/env/JMq-3.jpg	pic/pie_charts_level2/pie_chart_level2-57.png	pic/pie_charts_level3/pie_chart_level3-57.png	pic/pie_charts_level4/pie_chart_level4-57.png	pic/pie_charts_level5/pie_chart_level5-57.png	pic/pie_charts_level6/pie_chart_level6-57.png
58	JMq-4	居民区	116.31087	39.99674	pic/env/JMq-4.jpg	pic/pie_charts_level2/pie_chart_level2-58.png	pic/pie_charts_level3/pie_chart_level3-58.png	pic/pie_charts_level4/pie_chart_level4-58.png	pic/pie_charts_level5/pie_chart_level5-58.png	pic/pie_charts_level6/pie_chart_level6-58.png
59	JMQS-1	居民区水样	116.31127	39.99791	pic/env/JMQS-1.jpg	pic/pie_charts_level2/pie_chart_level2-59.png	pic/pie_charts_level3/pie_chart_level3-59.png	pic/pie_charts_level4/pie_chart_level4-59.png	pic/pie_charts_level5/pie_chart_level5-59.png	pic/pie_charts_level6/pie_chart_level6-59.png
60	JMQS-2	居民区水样	116.3108	39.99705	pic/env/JMQS-2.jpg	pic/pie_charts_level2/pie_chart_level2-60.png	pic/pie_charts_level3/pie_chart_level3-60.png	pic/pie_charts_level4/pie_chart_level4-60.png	pic/pie_charts_level5/pie_chart_level5-60.png	pic/pie_charts_level6/pie_chart_level6-60.png
61	S-1	西门水样	116.30534	39.99658	pic/env/S-1.jpg	pic/pie_charts_level2/pie_chart_level2-61.png	pic/pie_charts_level3/pie_chart_level3-61.png	pic/pie_charts_level4/pie_chart_level4-61.png	pic/pie_charts_level5/pie_chart_level5-61.png	pic/pie_charts_level6/pie_chart_level6-61.png
62	S-2	西门水样	116.30507	39.99528	pic/env/S-2.jpg	pic/pie_charts_level2/pie_chart_level2-62.png	pic/pie_charts_level3/pie_chart_level3-62.png	pic/pie_charts_level4/pie_chart_level4-62.png	pic/pie_charts_level5/pie_chart_level5-62.png	pic/pie_charts_level6/pie_chart_level6-62.png
63	WMH-1	未名湖	116.31151	39.99403	pic/env/WMH-1.jpg	pic/pie_charts_level2/pie_chart_level2-63.png	pic/pie_charts_level3/pie_chart_level3-63.png	pic/pie_charts_level4/pie_chart_level4-63.png	pic/pie_charts_level5/pie_chart_level5-63.png	pic/pie_charts_level6/pie_chart_level6-63.png
64	WMH-10	未名湖	116.30794	39.99515	pic/env/WMH-10.jpg	pic/pie_charts_level2/pie_chart_level2-64.png	pic/pie_charts_level3/pie_chart_level3-64.png	pic/pie_charts_level4/pie_chart_level4-64.png	pic/pie_charts_level5/pie_chart_level5-64.png	pic/pie_charts_level6/pie_chart_level6-64.png
65	WMH-11	未名湖	116.30745	39.99518	pic/env/WMH-11.jpg	pic/pie_charts_level2/pie_chart_level2-65.png	pic/pie_charts_level3/pie_chart_level3-65.png	pic/pie_charts_level4/pie_chart_level4-65.png	pic/pie_charts_level5/pie_chart_level5-65.png	pic/pie_charts_level6/pie_chart_level6-65.png
66	WMH-12	未名湖	116.30638	39.99488	pic/env/WMH-12.jpg	pic/pie_charts_level2/pie_chart_level2-66.png	pic/pie_charts_level3/pie_chart_level3-66.png	pic/pie_charts_level4/pie_chart_level4-66.png	pic/pie_charts_level5/pie_chart_level5-66.png	pic/pie_charts_level6/pie_chart_level6-66.png
67	WMH-13	未名湖	116.306283	39.995148	pic/env/WMH-13.jpg	pic/pie_charts_level2/pie_chart_level2-67.png	pic/pie_charts_level3/pie_chart_level3-67.png	pic/pie_charts_level4/pie_chart_level4-67.png	pic/pie_charts_level5/pie_chart_level5-67.png	pic/pie_charts_level6/pie_chart_level6-67.png
68	WMH-14	未名湖	116.30584	39.996	pic/env/WMH-14.jpg	pic/pie_charts_level2/pie_chart_level2-68.png	pic/pie_charts_level3/pie_chart_level3-68.png	pic/pie_charts_level4/pie_chart_level4-68.png	pic/pie_charts_level5/pie_chart_level5-68.png	pic/pie_charts_level6/pie_chart_level6-68.png
69	WMH-15	未名湖	116.30551	39.99626	pic/env/WMH-15.jpg	pic/pie_charts_level2/pie_chart_level2-69.png	pic/pie_charts_level3/pie_chart_level3-69.png	pic/pie_charts_level4/pie_chart_level4-69.png	pic/pie_charts_level5/pie_chart_level5-69.png	pic/pie_charts_level6/pie_chart_level6-69.png
70	WMH-16	未名湖	116.30656	39.99587	pic/env/WMH-16.jpg	pic/pie_charts_level2/pie_chart_level2-70.png	pic/pie_charts_level3/pie_chart_level3-70.png	pic/pie_charts_level4/pie_chart_level4-70.png	pic/pie_charts_level5/pie_chart_level5-70.png	pic/pie_charts_level6/pie_chart_level6-70.png
71	WMH-17	未名湖	116.30681	39.99677	pic/env/WMH-17.jpg	pic/pie_charts_level2/pie_chart_level2-71.png	pic/pie_charts_level3/pie_chart_level3-71.png	pic/pie_charts_level4/pie_chart_level4-71.png	pic/pie_charts_level5/pie_chart_level5-71.png	pic/pie_charts_level6/pie_chart_level6-71.png
72	WMH-18	未名湖	116.30621	39.99699	pic/env/WMH-18.jpg	pic/pie_charts_level2/pie_chart_level2-72.png	pic/pie_charts_level3/pie_chart_level3-72.png	pic/pie_charts_level4/pie_chart_level4-72.png	pic/pie_charts_level5/pie_chart_level5-72.png	pic/pie_charts_level6/pie_chart_level6-72.png
73	WMH-19	未名湖	116.30618	39.99664	pic/env/WMH-19.jpg	pic/pie_charts_level2/pie_chart_level2-73.png	pic/pie_charts_level3/pie_chart_level3-73.png	pic/pie_charts_level4/pie_chart_level4-73.png	pic/pie_charts_level5/pie_chart_level5-73.png	pic/pie_charts_level6/pie_chart_level6-73.png
74	WMH-2	未名湖	116.31041	39.99394	pic/env/WMH-2.jpg	pic/pie_charts_level2/pie_chart_level2-74.png	pic/pie_charts_level3/pie_chart_level3-74.png	pic/pie_charts_level4/pie_chart_level4-74.png	pic/pie_charts_level5/pie_chart_level5-74.png	pic/pie_charts_level6/pie_chart_level6-74.png
75	WMH-20	未名湖	116.30461	39.99405	pic/env/WMH-20.jpg	pic/pie_charts_level2/pie_chart_level2-75.png	pic/pie_charts_level3/pie_chart_level3-75.png	pic/pie_charts_level4/pie_chart_level4-75.png	pic/pie_charts_level5/pie_chart_level5-75.png	pic/pie_charts_level6/pie_chart_level6-75.png
76	WMH-21	未名湖	116.30482	39.99446	pic/env/WMH-21.jpg	pic/pie_charts_level2/pie_chart_level2-76.png	pic/pie_charts_level3/pie_chart_level3-76.png	pic/pie_charts_level4/pie_chart_level4-76.png	pic/pie_charts_level5/pie_chart_level5-76.png	pic/pie_charts_level6/pie_chart_level6-76.png
77	WMH-22	未名湖	116.30454	39.99398	pic/env/WMH-22.jpg	pic/pie_charts_level2/pie_chart_level2-77.png	pic/pie_charts_level3/pie_chart_level3-77.png	pic/pie_charts_level4/pie_chart_level4-77.png	pic/pie_charts_level5/pie_chart_level5-77.png	pic/pie_charts_level6/pie_chart_level6-77.png
78	WMH-23	未名湖	116.30554	39.99329	pic/env/WMH-23.jpg	pic/pie_charts_level2/pie_chart_level2-78.png	pic/pie_charts_level3/pie_chart_level3-78.png	pic/pie_charts_level4/pie_chart_level4-78.png	pic/pie_charts_level5/pie_chart_level5-78.png	pic/pie_charts_level6/pie_chart_level6-78.png
79	WMH-24	未名湖	116.306	39.99301	pic/env/WMH-24.jpg	pic/pie_charts_level2/pie_chart_level2-79.png	pic/pie_charts_level3/pie_chart_level3-79.png	pic/pie_charts_level4/pie_chart_level4-79.png	pic/pie_charts_level5/pie_chart_level5-79.png	pic/pie_charts_level6/pie_chart_level6-79.png
80	WMH-25	未名湖	116.30816	39.99207	pic/env/WMH-25.jpg	pic/pie_charts_level2/pie_chart_level2-80.png	pic/pie_charts_level3/pie_chart_level3-80.png	pic/pie_charts_level4/pie_chart_level4-80.png	pic/pie_charts_level5/pie_chart_level5-80.png	pic/pie_charts_level6/pie_chart_level6-80.png
81	WMH-3	未名湖	116.31101	39.99572	pic/env/WMH-3.jpg	pic/pie_charts_level2/pie_chart_level2-81.png	pic/pie_charts_level3/pie_chart_level3-81.png	pic/pie_charts_level4/pie_chart_level4-81.png	pic/pie_charts_level5/pie_chart_level5-81.png	pic/pie_charts_level6/pie_chart_level6-81.png
82	WMH-4	未名湖	116.31042	39.9956	pic/env/WMH-4.jpg	pic/pie_charts_level2/pie_chart_level2-82.png	pic/pie_charts_level3/pie_chart_level3-82.png	pic/pie_charts_level4/pie_chart_level4-82.png	pic/pie_charts_level5/pie_chart_level5-82.png	pic/pie_charts_level6/pie_chart_level6-82.png
83	WMH-5	未名湖	116.30911	39.99528	pic/env/WMH-5.jpg	pic/pie_charts_level2/pie_chart_level2-83.png	pic/pie_charts_level3/pie_chart_level3-83.png	pic/pie_charts_level4/pie_chart_level4-83.png	pic/pie_charts_level5/pie_chart_level5-83.png	pic/pie_charts_level6/pie_chart_level6-83.png
84	WMH-6	未名湖	116.3089	39.99508	pic/env/WMH-6.jpg	pic/pie_charts_level2/pie_chart_level2-84.png	pic/pie_charts_level3/pie_chart_level3-84.png	pic/pie_charts_level4/pie_chart_level4-84.png	pic/pie_charts_level5/pie_chart_level5-84.png	pic/pie_charts_level6/pie_chart_level6-84.png
85	WMH-7	未名湖	116.30912	39.99477	pic/env/WMH-7.jpg	pic/pie_charts_level2/pie_chart_level2-85.png	pic/pie_charts_level3/pie_chart_level3-85.png	pic/pie_charts_level4/pie_chart_level4-85.png	pic/pie_charts_level5/pie_chart_level5-85.png	pic/pie_charts_level6/pie_chart_level6-85.png
86	WMH-8	未名湖	116.30967	39.9946	pic/env/WMH-8.jpg	pic/pie_charts_level2/pie_chart_level2-86.png	pic/pie_charts_level3/pie_chart_level3-86.png	pic/pie_charts_level4/pie_chart_level4-86.png	pic/pie_charts_level5/pie_chart_level5-86.png	pic/pie_charts_level6/pie_chart_level6-86.png
87	WMH-9	未名湖	116.30849	39.99515	pic/env/WMH-9.jpg	pic/pie_charts_level2/pie_chart_level2-87.png	pic/pie_charts_level3/pie_chart_level3-87.png	pic/pie_charts_level4/pie_chart_level4-87.png	pic/pie_charts_level5/pie_chart_level5-87.png	pic/pie_charts_level6/pie_chart_level6-87.png
88	WMHS-1	未名湖水	116.31042	39.99404	pic/env/WMHS-1.jpg	pic/pie_charts_level2/pie_chart_level2-88.png	pic/pie_charts_level3/pie_chart_level3-88.png	pic/pie_charts_level4/pie_chart_level4-88.png	pic/pie_charts_level5/pie_chart_level5-88.png	pic/pie_charts_level6/pie_chart_level6-88.png
89	WMHS-2	未名湖水	116.30943	39.99546	pic/env/WMHS-2.jpg	pic/pie_charts_level2/pie_chart_level2-89.png	pic/pie_charts_level3/pie_chart_level3-89.png	pic/pie_charts_level4/pie_chart_level4-89.png	pic/pie_charts_level5/pie_chart_level5-89.png	pic/pie_charts_level6/pie_chart_level6-89.png
90	WSQ20	遥感楼门牌	116.312674	39.993197	pic/env/WSQ20.jpg	pic/pie_charts_level2/pie_chart_level2-90.png	pic/pie_charts_level3/pie_chart_level3-90.png	pic/pie_charts_level4/pie_chart_level4-90.png	pic/pie_charts_level5/pie_chart_level5-90.png	pic/pie_charts_level6/pie_chart_level6-90.png
91	WSQ21	吕志和楼瑞幸咖啡窗户	116.313178	39.992291	pic/env/WSQ21.jpg	pic/pie_charts_level2/pie_chart_level2-91.png	pic/pie_charts_level3/pie_chart_level3-91.png	pic/pie_charts_level4/pie_chart_level4-91.png	pic/pie_charts_level5/pie_chart_level5-91.png	pic/pie_charts_level6/pie_chart_level6-91.png
92	WSQ22	地学楼教室讲台	116.311874	39.991727	pic/env/WSQ22.jpg	pic/pie_charts_level2/pie_chart_level2-92.png	pic/pie_charts_level3/pie_chart_level3-92.png	pic/pie_charts_level4/pie_chart_level4-92.png	pic/pie_charts_level5/pie_chart_level5-92.png	pic/pie_charts_level6/pie_chart_level6-92.png
93	WSQ23	光华管理学院1号楼寄存柜按钮	116.312224	39.990713	pic/env/WSQ23.jpg	pic/pie_charts_level2/pie_chart_level2-93.png	pic/pie_charts_level3/pie_chart_level3-93.png	pic/pie_charts_level4/pie_chart_level4-93.png	pic/pie_charts_level5/pie_chart_level5-93.png	pic/pie_charts_level6/pie_chart_level6-93.png
94	WSQ24	理科教学楼（黄廷方楼）一楼圆凳	116.312943	39.991456	pic/env/WSQ24.jpg	pic/pie_charts_level2/pie_chart_level2-94.png	pic/pie_charts_level3/pie_chart_level3-94.png	pic/pie_charts_level4/pie_chart_level4-94.png	pic/pie_charts_level5/pie_chart_level5-94.png	pic/pie_charts_level6/pie_chart_level6-94.png
95	WSQ25	第二教学楼自助售货机把手	116.313147	39.989452	pic/env/WSQ25.jpg	pic/pie_charts_level2/pie_chart_level2-95.png	pic/pie_charts_level3/pie_chart_level3-95.png	pic/pie_charts_level4/pie_chart_level4-95.png	pic/pie_charts_level5/pie_chart_level5-95.png	pic/pie_charts_level6/pie_chart_level6-95.png
96	WSQ27	邱德拔体育馆西门柱子	116.315103	39.988655	pic/env/WSQ27.jpg	pic/pie_charts_level2/pie_chart_level2-96.png	pic/pie_charts_level3/pie_chart_level3-96.png	pic/pie_charts_level4/pie_chart_level4-96.png	pic/pie_charts_level5/pie_chart_level5-96.png	pic/pie_charts_level6/pie_chart_level6-96.png
97	WSQ28	英杰交流中心玻璃门	116.313876	39.990738	pic/env/WSQ28.jpg	pic/pie_charts_level2/pie_chart_level2-97.png	pic/pie_charts_level3/pie_chart_level3-97.png	pic/pie_charts_level4/pie_chart_level4-97.png	pic/pie_charts_level5/pie_chart_level5-97.png	pic/pie_charts_level6/pie_chart_level6-97.png
98	WSQ29	理科三号楼东门重点实验室牌子	116.314545	39.991664	pic/env/WSQ29.jpg	pic/pie_charts_level2/pie_chart_level2-98.png	pic/pie_charts_level3/pie_chart_level3-98.png	pic/pie_charts_level4/pie_chart_level4-98.png	pic/pie_charts_level5/pie_chart_level5-98.png	pic/pie_charts_level6/pie_chart_level6-98.png
99	WSQ30	金光生命科学大楼南门柱子	116.314486	39.992452	pic/env/WSQ30.jpg	pic/pie_charts_level2/pie_chart_level2-99.png	pic/pie_charts_level3/pie_chart_level3-99.png	pic/pie_charts_level4/pie_chart_level4-99.png	pic/pie_charts_level5/pie_chart_level5-99.png	pic/pie_charts_level6/pie_chart_level6-99.png
100	WSQ31	环境科学与工程学院室外圆桌	116.314722	39.994581	pic/env/WSQ31.jpg	pic/pie_charts_level2/pie_chart_level2-100.png	pic/pie_charts_level3/pie_chart_level3-100.png	pic/pie_charts_level4/pie_chart_level4-100.png	pic/pie_charts_level5/pie_chart_level5-100.png	pic/pie_charts_level6/pie_chart_level6-100.png
101	WSQ32	法学院I love law 立牌	116.313506	39.994473	pic/env/WSQ32.jpg	pic/pie_charts_level2/pie_chart_level2-101.png	pic/pie_charts_level3/pie_chart_level3-101.png	pic/pie_charts_level4/pie_chart_level4-101.png	pic/pie_charts_level5/pie_chart_level5-101.png	pic/pie_charts_level6/pie_chart_level6-101.png
102	WSQ33	樱树林飞人雕像立柱	116.313115	39.994867	pic/env/WSQ33.jpg	pic/pie_charts_level2/pie_chart_level2-102.png	pic/pie_charts_level3/pie_chart_level3-102.png	pic/pie_charts_level4/pie_chart_level4-102.png	pic/pie_charts_level5/pie_chart_level5-102.png	pic/pie_charts_level6/pie_chart_level6-102.png
103	WSQ34	东操场小足球门	116.313214	39.987912	pic/env/WSQ34.jpg	pic/pie_charts_level2/pie_chart_level2-103.png	pic/pie_charts_level3/pie_chart_level3-103.png	pic/pie_charts_level4/pie_chart_level4-103.png	pic/pie_charts_level5/pie_chart_level5-103.png	pic/pie_charts_level6/pie_chart_level6-103.png
104	WSQ42	王克桢楼南门柱子	116.314897	39.986922	pic/env/WSQ42.jpg	pic/pie_charts_level2/pie_chart_level2-104.png	pic/pie_charts_level3/pie_chart_level3-104.png	pic/pie_charts_level4/pie_chart_level4-104.png	pic/pie_charts_level5/pie_chart_level5-104.png	pic/pie_charts_level6/pie_chart_level6-104.png
105	WSQ43	理科5号楼马寅初雕像	116.314694	39.989891	pic/env/WSQ43.jpg	pic/pie_charts_level2/pie_chart_level2-105.png	pic/pie_charts_level3/pie_chart_level3-105.png	pic/pie_charts_level4/pie_chart_level4-105.png	pic/pie_charts_level5/pie_chart_level5-105.png	pic/pie_charts_level6/pie_chart_level6-105.png
106	WSQ44	光华管理学院2号楼西门把手	116.313287	39.99555	pic/env/WSQ44.jpg	pic/pie_charts_level2/pie_chart_level2-106.png	pic/pie_charts_level3/pie_chart_level3-106.png	pic/pie_charts_level4/pie_chart_level4-106.png	pic/pie_charts_level5/pie_chart_level5-106.png	pic/pie_charts_level6/pie_chart_level6-106.png
107	WYXY-1	外国语学院	116.31242	39.99726	pic/env/WYXY-1.jpg	pic/pie_charts_level2/pie_chart_level2-107.png	pic/pie_charts_level3/pie_chart_level3-107.png	pic/pie_charts_level4/pie_chart_level4-107.png	pic/pie_charts_level5/pie_chart_level5-107.png	pic/pie_charts_level6/pie_chart_level6-107.png
108	XW10	30楼秋千	116.309363	39.988086	pic/env/XW10.jpg	pic/pie_charts_level2/pie_chart_level2-108.png	pic/pie_charts_level3/pie_chart_level3-108.png	pic/pie_charts_level4/pie_chart_level4-108.png	pic/pie_charts_level5/pie_chart_level5-108.png	pic/pie_charts_level6/pie_chart_level6-108.png
109	XW11	新太阳学生中心一层桌面	116.311164	39.98888	pic/env/XW11.jpg	pic/pie_charts_level2/pie_chart_level2-109.png	pic/pie_charts_level3/pie_chart_level3-109.png	pic/pie_charts_level4/pie_chart_level4-109.png	pic/pie_charts_level5/pie_chart_level5-109.png	pic/pie_charts_level6/pie_chart_level6-109.png
110	XW12	百周年纪念讲堂南侧广告牌	116.310755	39.989626	pic/env/XW12.jpg	pic/pie_charts_level2/pie_chart_level2-110.png	pic/pie_charts_level3/pie_chart_level3-110.png	pic/pie_charts_level4/pie_chart_level4-110.png	pic/pie_charts_level5/pie_chart_level5-110.png	pic/pie_charts_level6/pie_chart_level6-110.png
111	XW13	图书馆闸机	116.309972	39.991902	pic/env/XW13.jpg	pic/pie_charts_level2/pie_chart_level2-111.png	pic/pie_charts_level3/pie_chart_level3-111.png	pic/pie_charts_level4/pie_chart_level4-111.png	pic/pie_charts_level5/pie_chart_level5-111.png	pic/pie_charts_level6/pie_chart_level6-111.png
112	XW14	革命烈士纪念碑	116.308191	39.992156	pic/env/XW14.jpg	pic/pie_charts_level2/pie_chart_level2-112.png	pic/pie_charts_level3/pie_chart_level3-112.png	pic/pie_charts_level4/pie_chart_level4-112.png	pic/pie_charts_level5/pie_chart_level5-112.png	pic/pie_charts_level6/pie_chart_level6-112.png
113	XW37	快递服务中心快递柜	116.310593	39.986624	pic/env/XW37.jpg	pic/pie_charts_level2/pie_chart_level2-113.png	pic/pie_charts_level3/pie_chart_level3-113.png	pic/pie_charts_level4/pie_chart_level4-113.png	pic/pie_charts_level5/pie_chart_level5-113.png	pic/pie_charts_level6/pie_chart_level6-113.png
114	XW38	正大国际中心西侧正门	116.306125	39.990605	pic/env/XW38.jpg	pic/pie_charts_level2/pie_chart_level2-114.png	pic/pie_charts_level3/pie_chart_level3-114.png	pic/pie_charts_level4/pie_chart_level4-114.png	pic/pie_charts_level5/pie_chart_level5-114.png	pic/pie_charts_level6/pie_chart_level6-114.png
115	XW39	燕南园工学院石碑	116.308314	39.98945	pic/env/XW39.jpg	pic/pie_charts_level2/pie_chart_level2-115.png	pic/pie_charts_level3/pie_chart_level3-115.png	pic/pie_charts_level4/pie_chart_level4-115.png	pic/pie_charts_level5/pie_chart_level5-115.png	pic/pie_charts_level6/pie_chart_level6-115.png
116	XW40	二体东篮球场西侧物品存放柜柜门	116.308631	39.990695	pic/env/XW40.jpg	pic/pie_charts_level2/pie_chart_level2-116.png	pic/pie_charts_level3/pie_chart_level3-116.png	pic/pie_charts_level4/pie_chart_level4-116.png	pic/pie_charts_level5/pie_chart_level5-116.png	pic/pie_charts_level6/pie_chart_level6-116.png
117	XW45	五四体育场西侧塑胶跑道	116.312769	39.987684	pic/env/XW45.jpg	pic/pie_charts_level2/pie_chart_level2-117.png	pic/pie_charts_level3/pie_chart_level3-117.png	pic/pie_charts_level4/pie_chart_level4-117.png	pic/pie_charts_level5/pie_chart_level5-117.png	pic/pie_charts_level6/pie_chart_level6-117.png
118	XW46	学一食堂东区大理石桌面	116.308133	39.987526	pic/env/XW46.jpg	pic/pie_charts_level2/pie_chart_level2-118.png	pic/pie_charts_level3/pie_chart_level3-118.png	pic/pie_charts_level4/pie_chart_level4-118.png	pic/pie_charts_level5/pie_chart_level5-118.png	pic/pie_charts_level6/pie_chart_level6-118.png
119	XW5	勺园学生宿舍，家@勺园立牌	116.30622	39.991711	pic/env/XW5.jpg	pic/pie_charts_level2/pie_chart_level2-119.png	pic/pie_charts_level3/pie_chart_level3-119.png	pic/pie_charts_level4/pie_chart_level4-119.png	pic/pie_charts_level5/pie_chart_level5-119.png	pic/pie_charts_level6/pie_chart_level6-119.png
120	XW6	国际关系学院字碑	116.306559	39.991417	pic/env/XW6.jpg	pic/pie_charts_level2/pie_chart_level2-120.png	pic/pie_charts_level3/pie_chart_level3-120.png	pic/pie_charts_level4/pie_chart_level4-120.png	pic/pie_charts_level5/pie_chart_level5-120.png	pic/pie_charts_level6/pie_chart_level6-120.png
121	XW7	佟园食堂门把手	116.306746	39.990992	pic/env/XW7.jpg	pic/pie_charts_level2/pie_chart_level2-121.png	pic/pie_charts_level3/pie_chart_level3-121.png	pic/pie_charts_level4/pie_chart_level4-121.png	pic/pie_charts_level5/pie_chart_level5-121.png	pic/pie_charts_level6/pie_chart_level6-121.png
122	XW8	46楼自行车维修点集装箱	116.305717	39.98878	pic/env/XW8.jpg	pic/pie_charts_level2/pie_chart_level2-122.png	pic/pie_charts_level3/pie_chart_level3-122.png	pic/pie_charts_level4/pie_chart_level4-122.png	pic/pie_charts_level5/pie_chart_level5-122.png	pic/pie_charts_level6/pie_chart_level6-122.png
123	XW9	家园食堂二层凳子	116.308154	39.98849	pic/env/XW9.jpg	pic/pie_charts_level2/pie_chart_level2-123.png	pic/pie_charts_level3/pie_chart_level3-123.png	pic/pie_charts_level4/pie_chart_level4-123.png	pic/pie_charts_level5/pie_chart_level5-123.png	pic/pie_charts_level6/pie_chart_level6-123.png
124	XYY-1	校医院旁	116.31336	39.99633	pic/env/XYY-1.jpg	pic/pie_charts_level2/pie_chart_level2-124.png	pic/pie_charts_level3/pie_chart_level3-124.png	pic/pie_charts_level4/pie_chart_level4-124.png	pic/pie_charts_level5/pie_chart_level5-124.png	pic/pie_charts_level6/pie_chart_level6-124.png
125	YT-1	一体	116.31298	39.99465	pic/env/YT-1.jpg	pic/pie_charts_level2/pie_chart_level2-125.png	pic/pie_charts_level3/pie_chart_level3-125.png	pic/pie_charts_level4/pie_chart_level4-125.png	pic/pie_charts_level5/pie_chart_level5-125.png	pic/pie_charts_level6/pie_chart_level6-125.png
